{
  "code": 0,
  "message": "成功",
  "data": {
    "pager": {
      "total": 0,
      "limit": 10,
      "pages": 0,
      "current": 1,
      "size": 10
    },
    "records": [
      {
        "id": 563,
        "idNo": "41BBB8F8E8D9C1D7E8FC006EAFAA2977",
        "name": "string",
        "type": 0,
        "longitude": null,
        "latitude": 0.0,
        "address": "string",
        "province": "string",
        "city": "string",
        "area": "string",
        "phone": "string",
        "serviceWorkdayTime": "string",
        "scope": "string",
        "park": 0,
        "parkFee": null,
        "images": "string",
        "networkStatus": 0,
        "serviceHolidayTime": "string",
        "specilic": 0,
        "qrcode": 0,
        "throug": "string",
        "status": null,
        "remark": null,
        "estateTypeList": [],
        "estateTypes": [],
        "brandIds": [],
        "serviceTimeList": [],
        "statusList": [],
        "stallCount": 0
      },
      {
        "id": 564,
        "idNo": "BEEA56EF56A24CFD38DF086E5D2855FD",
        "name": "string",
        "type": 0,
        "longitude": null,
        "latitude": 0.0,
        "address": "string",
        "province": "string",
        "city": "string",
        "area": "string",
        "phone": "string",
        "serviceWorkdayTime": "string",
        "scope": "string",
        "park": 0,
        "parkFee": null,
        "images": "string",
        "networkStatus": 0,
        "serviceHolidayTime": "string",
        "specilic": 0,
        "qrcode": 0,
        "throug": "string",
        "status": null,
        "remark": null,
        "estateTypeList": [],
        "estateTypes": [],
        "brandIds": [],
        "serviceTimeList": [],
        "statusList": [],
        "stallCount": 0
      },
      {
        "id": 567,
        "idNo": "30E4898531226B2BB7B6E4D2BC32B797",
        "name": "我的站点2016-09-23 10:53:55",
        "type": 2,
        "longitude": null,
        "latitude": 39.63,
        "address": "中国银行",
        "province": "130000",
        "city": "130200",
        "area": "130203",
        "phone": "123456",
        "serviceWorkdayTime": "01:00-13:00",
        "scope": "1",
        "park": 2,
        "parkFee": null,
        "images": "http://192.168.60.19:9000/static/upload/e705dcf0-f834-426e-8c64-f3b48a9715d8/add_touxiang.png,http://192.168.60.19:9000/static/upload/1a077b18-9b9e-407f-ae69-9c515b0a9234/tip.png",
        "networkStatus": null,
        "serviceHolidayTime": "01:00-13:00",
        "specilic": 2,
        "qrcode": null,
        "throug": null,
        "status": null,
        "remark": null,
        "estateTypeList": [],
        "estateTypes": [],
        "brandIds": [],
        "serviceTimeList": [],
        "statusList": [],
        "stallCount": 0
      }
    ]
  }
}